{
"type": "FeatureCollection",
"crs": { "type": "name", "properties": { "name": "urn:ogc:def:crs:EPSG::3826" } },
"features": [
{ "type": "Feature", "properties": { "SiteName": "三重", "SiteEngNam": "Sanchong", "AreaName": "北部空品區", "County": "新北市", "Township": "三重區", "SiteAddres": "新北市三重區三和路重陽路交口", "TWD97Lon": 121.493806, "TWD97Lat": 25.072611, "SiteType": "交通測站" }, "geometry": { "type": "Point", "coordinates": [ 299815.83966351725, 2773911.1001245934 ] } },
{ "type": "Feature", "properties": { "SiteName": "土城", "SiteEngNam": "Tucheng", "AreaName": "北部空品區", "County": "新北市", "Township": "土城區", "SiteAddres": "新北市土城區學府路一段241號", "TWD97Lon": 121.451861, "TWD97Lat": 24.982528, "SiteType": "一般測站" }, "geometry": { "type": "Point", "coordinates": [ 295617.60146805644, 2763918.3078981256 ] } },
{ "type": "Feature", "properties": { "SiteName": "士林", "SiteEngNam": "Shilin", "AreaName": "北部空品區", "County": "臺北市", "Township": "北投區", "SiteAddres": "臺北市北投區文林北路155號", "TWD97Lon": 121.515389, "TWD97Lat": 25.105417, "SiteType": "一般測站" }, "geometry": { "type": "Point", "coordinates": [ 301979.33956176142, 2777553.0166323241 ] } },
{ "type": "Feature", "properties": { "SiteName": "大同", "SiteEngNam": "Datong", "AreaName": "北部空品區", "County": "臺北市", "Township": "大同區", "SiteAddres": "臺北市大同區重慶北路三段2號", "TWD97Lon": 121.513311, "TWD97Lat": 25.0632, "SiteType": "交通測站" }, "geometry": { "type": "Point", "coordinates": [ 301787.52161833743, 2772876.0129599716 ] } },
{ "type": "Feature", "properties": { "SiteName": "基隆", "SiteEngNam": "Keelung", "AreaName": "北部空品區", "County": "基隆市", "Township": "信義區", "SiteAddres": "基隆市東信路324號", "TWD97Lon": 121.760056, "TWD97Lat": 25.129167, "SiteType": "一般測站" }, "geometry": { "type": "Point", "coordinates": [ 326641.09467135929, 2780300.3391325641 ] } },
{ "type": "Feature", "properties": { "SiteName": "淡水", "SiteEngNam": "Tamsui", "AreaName": "北部空品區", "County": "新北市", "Township": "淡水區", "SiteAddres": "新北市淡水區中正東路42巷6號", "TWD97Lon": 121.449239, "TWD97Lat": 25.1645, "SiteType": "一般測站" }, "geometry": { "type": "Point", "coordinates": [ 295285.91912962933, 2784073.5759568485 ] } },
{ "type": "Feature", "properties": { "SiteName": "中山", "SiteEngNam": "Zhongshan", "AreaName": "北部空品區", "County": "臺北市", "Township": "中山區", "SiteAddres": "臺北市中山區林森北路511號", "TWD97Lon": 121.526528, "TWD97Lat": 25.062361, "SiteType": "一般測站" }, "geometry": { "type": "Point", "coordinates": [ 303121.35951272276, 2772788.2065583314 ] } },
{ "type": "Feature", "properties": { "SiteName": "菜寮", "SiteEngNam": "Cailiao", "AreaName": "北部空品區", "County": "新北市", "Township": "三重區", "SiteAddres": "新北市三重區中正北路163號", "TWD97Lon": 121.481028, "TWD97Lat": 25.06895, "SiteType": "一般測站" }, "geometry": { "type": "Point", "coordinates": [ 298528.19999563822, 2773500.9408079395 ] } },
{ "type": "Feature", "properties": { "SiteName": "古亭", "SiteEngNam": "Guting", "AreaName": "北部空品區", "County": "臺北市", "Township": "大安區", "SiteAddres": "臺北市大安區羅斯福路三段153號", "TWD97Lon": 121.529556, "TWD97Lat": 25.020608, "SiteType": "一般測站" }, "geometry": { "type": "Point", "coordinates": [ 303444.95296386303, 2768164.6079997951 ] } },
{ "type": "Feature", "properties": { "SiteName": "陽明", "SiteEngNam": "Yangming", "AreaName": "北部空品區", "County": "臺北市", "Township": "北投區", "SiteAddres": "臺北市北投區竹子湖路111號", "TWD97Lon": 121.529583, "TWD97Lat": 25.182722, "SiteType": "公園測站" }, "geometry": { "type": "Point", "coordinates": [ 303377.2655430169, 2786121.39877608 ] } },
{ "type": "Feature", "properties": { "SiteName": "永和", "SiteEngNam": "Yonghe", "AreaName": "北部空品區", "County": "新北市", "Township": "永和區", "SiteAddres": "新北市永和區永和路光復路交口", "TWD97Lon": 121.516306, "TWD97Lat": 25.017, "SiteType": "交通測站" }, "geometry": { "type": "Point", "coordinates": [ 302109.20823937911, 2767759.8056805474 ] } },
{ "type": "Feature", "properties": { "SiteName": "新店", "SiteEngNam": "Xindian", "AreaName": "北部空品區", "County": "新北市", "Township": "新店區", "SiteAddres": "新北市新店區民族路108號", "TWD97Lon": 121.537778, "TWD97Lat": 24.977222, "SiteType": "一般測站" }, "geometry": { "type": "Point", "coordinates": [ 304293.828729745, 2763362.2288976777 ] } },
{ "type": "Feature", "properties": { "SiteName": "新莊", "SiteEngNam": "Xinzhuang", "AreaName": "北部空品區", "County": "新北市", "Township": "新莊區", "SiteAddres": "新北市新莊區中正路510號", "TWD97Lon": 121.4325, "TWD97Lat": 25.037972, "SiteType": "一般測站" }, "geometry": { "type": "Point", "coordinates": [ 293643.3889618775, 2770053.1362578357 ] } },
{ "type": "Feature", "properties": { "SiteName": "汐止", "SiteEngNam": "Xizhi", "AreaName": "北部空品區", "County": "新北市", "Township": "汐止區", "SiteAddres": "新北市汐止區樟樹一路141巷2號", "TWD97Lon": 121.6423, "TWD97Lat": 25.067131, "SiteType": "一般測站" }, "geometry": { "type": "Point", "coordinates": [ 314799.36359002086, 2773367.0367265195 ] } },
{ "type": "Feature", "properties": { "SiteName": "萬里", "SiteEngNam": "Wanli", "AreaName": "北部空品區", "County": "新北市", "Township": "萬里區", "SiteAddres": "新北市萬里區瑪鋉路221號", "TWD97Lon": 121.689881, "TWD97Lat": 25.179667, "SiteType": "一般測站" }, "geometry": { "type": "Point", "coordinates": [ 319536.05811596161, 2785856.1621722598 ] } },
{ "type": "Feature", "properties": { "SiteName": "萬華", "SiteEngNam": "Wanhua", "AreaName": "北部空品區", "County": "臺北市", "Township": "萬華區", "SiteAddres": "臺北市萬華區中華路1段66號", "TWD97Lon": 121.507972, "TWD97Lat": 25.046503, "SiteType": "一般測站" }, "geometry": { "type": "Point", "coordinates": [ 301255.80917793955, 2771024.5287281312 ] } },
{ "type": "Feature", "properties": { "SiteName": "松山", "SiteEngNam": "Songshan", "AreaName": "北部空品區", "County": "臺北市", "Township": "松山區", "SiteAddres": "臺北市松山區八德路四段746號", "TWD97Lon": 121.578611, "TWD97Lat": 25.05, "SiteType": "一般測站" }, "geometry": { "type": "Point", "coordinates": [ 308381.97453169082, 2771440.4923886932 ] } },
{ "type": "Feature", "properties": { "SiteName": "板橋", "SiteEngNam": "Banqiao", "AreaName": "北部空品區", "County": "新北市", "Township": "板橋區", "SiteAddres": "新北市板橋區文化路一段25號", "TWD97Lon": 121.458667, "TWD97Lat": 25.012972, "SiteType": "一般測站" }, "geometry": { "type": "Point", "coordinates": [ 296293.30258698878, 2767292.7152312659 ] } },
{ "type": "Feature", "properties": { "SiteName": "林口", "SiteEngNam": "Linkou", "AreaName": "北部空品區", "County": "新北市", "Township": "林口區", "SiteAddres": "新北市林口區民治路25號", "TWD97Lon": 121.376869, "TWD97Lat": 25.077197, "SiteType": "一般測站" }, "geometry": { "type": "Point", "coordinates": [ 288017.52875378641, 2774381.0814845189 ] } }
]
}
