{
type: "FeatureCollection",
crs: { "type": "name", "properties": { "name": "urn:ogc:def:crs:EPSG::3826" } },
features: [
{ "type": "Feature", "properties": { "SiteName": "三重", "SiteEngNam": "Sanchong", "AreaName": "北部空品區", "County": "新北市", "Township": "三重區", "SiteAddres": "新北市三重區三和路重陽路交口","TWD97Lon":121.493806,"TWD97Lat":25.072611, "SiteType": "交通測站" }, "geometry": { "type": "Point","coordinates": [121.493806,25.072611] } }
{ "type": "Feature", "properties": { "SiteName": "土城", "SiteEngNam": "Tucheng", "AreaName": "北部空品區", "County": "新北市", "Township": "土城區", "SiteAddres": "新北市土城區學府路一段241號","TWD97Lon":121.451861,"TWD97Lat":24.982528, "SiteType": "一般測站" }, "geometry": { "type": "Point","coordinates": [121.451861,24.982528] } }
{ "type": "Feature", "properties": { "SiteName": "士林", "SiteEngNam": "Shilin", "AreaName": "北部空品區", "County": "臺北市", "Township": "北投區", "SiteAddres": "臺北市北投區文林北路155號","TWD97Lon":121.515389,"TWD97Lat":25.105417, "SiteType": "一般測站" }, "geometry": { "type": "Point","coordinates": [121.515389,25.105417] } }
{ "type": "Feature", "properties": { "SiteName": "大同", "SiteEngNam": "Datong", "AreaName": "北部空品區", "County": "臺北市", "Township": "大同區", "SiteAddres": "臺北市大同區重慶北路三段2號","TWD97Lon":121.513311,"TWD97Lat":25.0632, "SiteType": "交通測站" }, "geometry": { "type": "Point","coordinates": [121.513311,25.0632] } }
{ "type": "Feature", "properties": { "SiteName": "基隆", "SiteEngNam": "Keelung", "AreaName": "北部空品區", "County": "基隆市", "Township": "信義區", "SiteAddres": "基隆市東信路324號","TWD97Lon":121.760056,"TWD97Lat":25.129167, "SiteType": "一般測站" }, "geometry": { "type": "Point","coordinates": [121.760056,25.129167] } }
{ "type": "Feature", "properties": { "SiteName": "淡水", "SiteEngNam": "Tamsui", "AreaName": "北部空品區", "County": "新北市", "Township": "淡水區", "SiteAddres": "新北市淡水區中正東路42巷6號","TWD97Lon":121.449239,"TWD97Lat":25.1645, "SiteType": "一般測站" }, "geometry": { "type": "Point","coordinates": [121.449239,25.1645] } }
{ "type": "Feature", "properties": { "SiteName": "中山", "SiteEngNam": "Zhongshan", "AreaName": "北部空品區", "County": "臺北市", "Township": "中山區", "SiteAddres": "臺北市中山區林森北路511號","TWD97Lon":121.526528,"TWD97Lat":25.062361, "SiteType": "一般測站" }, "geometry": { "type": "Point","coordinates": [121.526528,25.062361] } }
{ "type": "Feature", "properties": { "SiteName": "菜寮", "SiteEngNam": "Cailiao", "AreaName": "北部空品區", "County": "新北市", "Township": "三重區", "SiteAddres": "新北市三重區中正北路163號","TWD97Lon":121.481028,"TWD97Lat":25.06895, "SiteType": "一般測站" }, "geometry": { "type": "Point","coordinates": [121.481028,25.06895] } }
{ "type": "Feature", "properties": { "SiteName": "古亭", "SiteEngNam": "Guting", "AreaName": "北部空品區", "County": "臺北市", "Township": "大安區", "SiteAddres": "臺北市大安區羅斯福路三段153號","TWD97Lon":121.529556,"TWD97Lat":25.020608, "SiteType": "一般測站" }, "geometry": { "type": "Point","coordinates": [121.529556,25.020608] } }
{ "type": "Feature", "properties": { "SiteName": "陽明", "SiteEngNam": "Yangming", "AreaName": "北部空品區", "County": "臺北市", "Township": "北投區", "SiteAddres": "臺北市北投區竹子湖路111號","TWD97Lon":121.529583,"TWD97Lat":25.182722, "SiteType": "公園測站" }, "geometry": { "type": "Point","coordinates": [121.529583,25.182722] } }
{ "type": "Feature", "properties": { "SiteName": "永和", "SiteEngNam": "Yonghe", "AreaName": "北部空品區", "County": "新北市", "Township": "永和區", "SiteAddres": "新北市永和區永和路光復路交口","TWD97Lon":121.516306,"TWD97Lat":25.017, "SiteType": "交通測站" }, "geometry": { "type": "Point","coordinates": [121.516306,25.017] } }
{ "type": "Feature", "properties": { "SiteName": "新店", "SiteEngNam": "Xindian", "AreaName": "北部空品區", "County": "新北市", "Township": "新店區", "SiteAddres": "新北市新店區民族路108號","TWD97Lon":121.537778,"TWD97Lat":24.977222, "SiteType": "一般測站" }, "geometry": { "type": "Point","coordinates": [121.537778,24.977222] } }
{ "type": "Feature", "properties": { "SiteName": "新莊", "SiteEngNam": "Xinzhuang", "AreaName": "北部空品區", "County": "新北市", "Township": "新莊區", "SiteAddres": "新北市新莊區中正路510號","TWD97Lon":121.4325,"TWD97Lat":25.037972, "SiteType": "一般測站" }, "geometry": { "type": "Point","coordinates": [121.4325,25.037972] } }
{ "type": "Feature", "properties": { "SiteName": "汐止", "SiteEngNam": "Xizhi", "AreaName": "北部空品區", "County": "新北市", "Township": "汐止區", "SiteAddres": "新北市汐止區樟樹一路141巷2號","TWD97Lon":121.6423,"TWD97Lat":25.067131, "SiteType": "一般測站" }, "geometry": { "type": "Point","coordinates": [121.6423,25.067131] } }
{ "type": "Feature", "properties": { "SiteName": "萬里", "SiteEngNam": "Wanli", "AreaName": "北部空品區", "County": "新北市", "Township": "萬里區", "SiteAddres": "新北市萬里區瑪鋉路221號","TWD97Lon":121.689881,"TWD97Lat":25.179667, "SiteType": "一般測站" }, "geometry": { "type": "Point","coordinates": [121.689881,25.179667] } }
{ "type": "Feature", "properties": { "SiteName": "萬華", "SiteEngNam": "Wanhua", "AreaName": "北部空品區", "County": "臺北市", "Township": "萬華區", "SiteAddres": "臺北市萬華區中華路1段66號","TWD97Lon":121.507972,"TWD97Lat":25.046503, "SiteType": "一般測站" }, "geometry": { "type": "Point","coordinates": [121.507972,25.046503] } }
{ "type": "Feature", "properties": { "SiteName": "松山", "SiteEngNam": "Songshan", "AreaName": "北部空品區", "County": "臺北市", "Township": "松山區", "SiteAddres": "臺北市松山區八德路四段746號","TWD97Lon":121.578611,"TWD97Lat":25.05, "SiteType": "一般測站" }, "geometry": { "type": "Point","coordinates": [121.578611,25.05] } }
{ "type": "Feature", "properties": { "SiteName": "板橋", "SiteEngNam": "Banqiao", "AreaName": "北部空品區", "County": "新北市", "Township": "板橋區", "SiteAddres": "新北市板橋區文化路一段25號","TWD97Lon":121.458667,"TWD97Lat":25.012972, "SiteType": "一般測站" }, "geometry": { "type": "Point","coordinates": [121.458667,25.012972] } }
{ "type": "Feature", "properties": { "SiteName": "林口", "SiteEngNam": "Linkou", "AreaName": "北部空品區", "County": "新北市", "Township": "林口區", "SiteAddres": "新北市林口區民治路25號","TWD97Lon":121.376869,"TWD97Lat":25.077197, "SiteType": "一般測站" }, "geometry": { "type": "Point","coordinates": [121.376869,25.077197] } }
]
}
